{"type":"FeatureCollection","features":[{"type":"Feature","properties":{"osm_type":"R","osm_id":1791324,"osm_key":"boundary","osm_value":"administrative","type":"state","name":"Sikkim","country":"India","countrycode":"IN","extent":[88.0120333,28.1240465,88.9211683,27.0792596]},"geometry":{"type":"Point","coordinates":[88.4550204,27.6016108]}},{"type":"Feature","properties":{"osm_type":"W","osm_id":964189424,"osm_key":"leisure","osm_value":"garden","type":"other","name":"Sikkim","locality":"Pengrugla","district":"St. Ewe","county":"Cornwall","state":"England","country":"United Kingdom","countrycode":"GB","extent":[-4.8112075,50.2846737,-4.8107036,50.2842776]},"geometry":{"type":"Point","coordinates":[-4.8110507,50.284475]}},{"type":"Feature","properties":{"osm_type":"N","osm_id":12093797249,"osm_key":"shop","osm_value":"tea","type":"house","housenumber":"27/29","name":"Sikkim","street":"Wolska","locality":"Czyste","district":"Wola","city":"Warszawa","state":"województwo mazowieckie","country":"Polska","postcode":"01-194","countrycode":"PL"},"geometry":{"type":"Point","coordinates":[20.9744024,52.235013]}},{"type":"Feature","properties":{"osm_type":"N","osm_id":1628417583,"osm_key":"shop","osm_value":"clothes","type":"house","name":"Sikkim","street":"Gammel Mønt","locality":"Gammelholm","district":"Indre By","city":"København","state":"Region Hovedstaden","country":"Danmark","postcode":"1117","countrycode":"DK"},"geometry":{"type":"Point","coordinates":[12.5806326,55.6814632]}},{"type":"Feature","properties":{"osm_type":"N","osm_id":1327333385,"osm_key":"shop","osm_value":"tea","type":"house","housenumber":"88","name":"Sikkim","street":"Aleja Niepodległości","locality":"Stary Mokotów","district":"Mokotów","city":"Warszawa","state":"województwo mazowieckie","country":"Polska","postcode":"02-585","countrycode":"PL"},"geometry":{"type":"Point","coordinates":[21.0133233,52.1974482]}}]}